City_ID,City,Lat,Lng,Max Temp,Humidity,Cloudiness,Wind Speed,Country,Date
0,port-aux-francais,-49.35,70.2167,3.76,91,100,14.74,TF,1702017213
1,port elizabeth,-33.918,25.5701,21.16,73,20,13.38,ZA,1702017214
2,horta,38.5333,-28.6333,19.45,93,100,10.28,PT,1702017214
3,fort bragg,35.139,-79.006,4.9,77,0,0.0,US,1702017215
4,adamstown,-25.066,-130.1015,22.61,80,100,3.89,PN,1702017216
5,west island,-12.1568,96.8225,28.99,74,40,6.69,CC,1702017216
6,nova sintra,14.8667,-24.7167,21.91,70,0,4.62,CV,1702017217
7,puerto natales,-51.7236,-72.4875,6.24,94,100,1.2,CL,1702017114
8,huedin,46.8667,23.05,0.45,86,47,0.32,RO,1702017218
9,waitangi,-43.9535,-176.5597,12.68,74,5,0.45,NZ,1702017218
10,puerto ayora,-0.7393,-90.3518,24.19,97,55,2.24,EC,1702017219
11,naze,28.3667,129.4833,19.51,60,3,2.76,JP,1702017219
12,ormara,25.2088,64.6357,24.18,45,0,3.61,PK,1702017220
13,cascais,38.6979,-9.4215,15.28,94,99,11.18,PT,1702017220
14,greymouth,-42.4667,171.2,14.44,74,40,3.68,NZ,1702017221
15,aksu,41.1231,80.2644,7.7,28,100,1.73,CN,1702017221
16,edinburgh of the seven seas,-37.0676,-12.3116,15.0,81,100,7.22,SH,1702017222
17,atafu village,-8.5421,-172.5159,29.17,72,97,2.8,TK,1702017222
18,nemuro,43.3236,145.575,3.09,55,4,11.15,JP,1702017223
19,san fernando de apure,7.8878,-67.4724,25.1,81,67,2.59,VE,1702017223
20,georgetown,5.4112,100.3354,32.97,55,20,4.12,MY,1702017177
21,callao,-12.0667,-77.15,20.95,82,40,4.12,PE,1702017224
22,margaret river,-33.95,115.0667,18.72,53,4,8.47,AU,1702017225
23,laguna,38.421,-121.4238,8.51,93,100,2.06,US,1702017082
24,kavaratti,10.5669,72.642,28.48,69,42,4.92,IN,1702017225
25,dryden,49.7833,-92.7503,2.16,75,75,4.12,CA,1702017226
26,viedma,-40.8135,-62.9967,11.65,80,0,3.42,AR,1702017226
27,beyneu,45.3167,55.2,-0.56,46,24,6.43,KZ,1702017227
28,invercargill,-46.4,168.35,16.16,61,100,3.54,NZ,1702017132
29,rongelap,11.1635,166.8941,27.39,77,8,9.03,MH,1702017228
30,aasiaat,68.7098,-52.8699,-10.37,91,100,1.85,GL,1702017228
31,bilibino,68.0546,166.4372,-36.5,99,38,1.08,RU,1702017229
32,tura,25.5198,90.2201,21.98,69,92,1.28,IN,1702017229
33,bogale,16.2833,95.4,31.75,55,88,1.45,MM,1702017230
34,wailua homesteads,22.0669,-159.378,22.44,88,75,2.57,US,1702017230
35,afaahiti,-17.75,-149.2833,24.93,83,100,9.31,PF,1702017231
36,ribeira grande,38.5167,-28.7,19.87,93,100,10.28,PT,1702017231
37,thompson,55.7435,-97.8558,-7.91,93,75,1.54,CA,1702017232
38,ulladulla,-35.35,150.4667,25.67,69,100,3.91,AU,1702017232
39,bethel,41.3712,-73.414,1.2,91,100,0.0,US,1702017233
40,grytviken,-54.2811,-36.5092,-1.42,86,68,4.1,GS,1702017233
41,bengkulu,-3.8004,102.2655,27.71,78,100,4.91,ID,1702017234
42,lihue,21.9789,-159.3672,22.77,83,75,2.57,US,1702017234
43,saldanha,-33.0117,17.9442,21.03,80,4,4.18,ZA,1702017235
44,enewetak,11.3474,162.3373,27.68,82,11,9.15,MH,1702017235
45,yellowknife,62.456,-114.3525,-10.71,92,100,2.06,CA,1702017052
46,san jose de jachal,-30.2406,-68.7469,19.88,46,1,1.81,AR,1702017236
47,bridgeport,41.167,-73.2048,2.42,84,0,0.45,US,1702016946
48,utrik,11.2278,169.8474,27.58,73,72,9.62,MH,1702017237
49,daru,-9.0763,143.2092,28.53,66,69,4.25,PG,1702017238
50,oued el abtal,35.456,0.6878,13.97,86,41,2.76,DZ,1702017238
51,tabou,4.423,-7.3528,26.15,82,66,2.45,CI,1702017239
52,acapulco de juarez,16.8634,-99.8901,26.9,89,20,2.06,MX,1702017239
53,mata-utu,-13.2816,-176.1745,28.22,81,45,6.45,WF,1702017240
54,blackmans bay,-43.0167,147.3167,19.07,90,100,5.58,AU,1702017240
55,albany,42.6001,-73.9662,0.2,89,90,0.16,US,1702017043
56,ushuaia,-54.8,-68.3,4.81,93,0,3.6,AR,1702017241
57,ciudad lazaro cardenas,17.9583,-102.2,24.69,79,0,1.55,MX,1702017242
58,papatowai,-46.5619,169.4708,16.05,63,100,2.27,NZ,1702017242
59,yoshino-cho,34.3961,135.8577,14.93,53,0,0.88,JP,1702017243
60,wangkui,46.8333,126.5,-7.34,88,100,6.73,CN,1702017243
61,mahina,-17.5065,-149.489,25.87,83,75,5.66,PF,1702017244
62,bubaque,11.2833,-15.8333,27.37,67,1,2.25,GW,1702017245
63,cole harbour,44.6724,-63.4751,-4.29,87,7,4.02,CA,1702017245
64,crane,31.3974,-102.3501,14.21,65,73,3.98,US,1702017246
65,dudinka,69.4058,86.1778,-35.18,99,9,1.79,RU,1702017247
66,happy valley-goose bay,53.3168,-60.3315,-1.83,64,100,10.29,CA,1702017247
67,whitehorse,60.7161,-135.0538,-5.57,86,75,7.2,CA,1702017248
68,isafjordur,66.0755,-23.124,-3.25,79,30,3.51,IS,1702017249
69,katutura,-22.521,17.0557,26.62,20,0,4.63,NA,1702017249
70,bredasdorp,-34.5322,20.0403,22.63,52,72,3.39,ZA,1702017250
71,thunder bay,48.4001,-89.3168,3.99,87,100,6.69,CA,1702016960
72,carnarvon,-24.8667,113.6333,25.07,55,0,10.11,AU,1702017251
73,granbury,32.4421,-97.7942,16.73,84,0,5.66,US,1702017001
74,arraial do cabo,-22.9661,-42.0278,24.36,92,92,10.62,BR,1702017253
75,baise city,23.8997,106.6133,26.71,46,39,1.83,CN,1702017253
76,araguari,-18.6472,-48.1872,23.16,52,9,1.19,BR,1702017254
77,luanda,-8.8368,13.2343,27.0,87,75,0.0,AO,1702017195
78,levuka,50.1834,-105.4011,0.9,97,100,8.17,CA,1702017255
79,andovoranto,-18.95,49.1,27.95,59,92,2.51,MG,1702017255
80,port mathurin,-19.6833,63.4167,26.16,72,1,3.37,MU,1702017256
81,sarakhs,36.5449,61.1577,13.1,42,3,2.46,IR,1702017256
82,beni saf,35.301,-1.3823,19.16,83,4,9.82,DZ,1702017257
83,chibougamau,49.9168,-74.3659,-24.21,77,100,0.0,CA,1702017195
84,saham,24.1722,56.8886,26.01,40,0,1.64,OM,1702017258
85,kerikeri,-35.2268,173.9474,19.95,65,4,1.34,NZ,1702017259
86,naranjo,10.0987,-84.3782,20.4,90,41,1.96,CR,1702017259
87,aginskoye,51.1,114.53,-19.36,72,38,9.56,RU,1702017260
88,longyearbyen,78.2186,15.6401,-0.09,64,40,7.72,SJ,1702017260
89,badger,64.8,-147.5333,-17.58,78,40,0.0,US,1702017261
90,mao,39.8885,4.2658,14.31,100,40,6.69,ES,1702017261
91,yeosu,34.7546,127.6599,15.62,74,0,5.06,KR,1702017262
92,gedo,9.0167,37.45,16.7,53,69,0.79,ET,1702017263
93,bamboo flat,11.7,92.7167,30.05,79,40,4.12,IN,1702017263
94,holualoa,19.6228,-155.9522,23.91,79,75,4.63,US,1702017048
95,bandarbeyla,9.4942,50.8122,27.44,49,45,9.4,SO,1702017264
96,punta arenas,-53.15,-70.9167,5.06,93,0,2.06,CL,1702017049
97,ilhabela,-23.7781,-45.3581,24.71,91,100,1.8,BR,1702017265
98,nagqu,31.5,92.0,-1.56,39,100,5.39,CN,1702017266
99,irece,-11.3042,-41.8558,19.87,88,100,3.97,BR,1702017266
100,aykhal,66.0,111.5,-26.71,98,100,2.55,RU,1702017203
101,magadan,59.5667,150.8,-6.37,80,100,7.5,RU,1702017268
102,alofi,-19.0595,-169.9187,26.94,83,75,2.57,NU,1702017269
103,saint-philippe,-21.3585,55.7679,27.77,81,83,4.22,RE,1702017269
104,hawaiian paradise park,19.5933,-154.9731,22.24,92,75,3.09,US,1702017270
105,ilulissat,69.2167,-51.1,-4.99,63,100,0.0,GL,1702017270
106,mormugao,15.4,73.8,30.59,51,97,3.6,IN,1702017271
107,college,64.8569,-147.8028,-17.53,76,40,0.0,US,1702017271
108,grand-lahou,5.1367,-5.0242,26.16,84,98,2.39,CI,1702017272
109,talnakh,69.4865,88.3972,-33.55,83,3,1.85,RU,1702017272
110,iqaluit,63.7506,-68.5145,-16.15,71,0,4.12,CA,1702017273
111,jolo,6.05,121.0167,28.78,78,96,1.78,PH,1702017274
112,laguna larga,-31.7765,-63.801,18.0,70,0,2.42,AR,1702017275
113,berdigestyakh,62.0989,126.6992,-35.21,95,98,3.12,RU,1702017275
114,tolanaro,-25.0319,46.9987,28.04,65,40,8.23,MG,1702017276
115,strijen,51.7452,4.5508,3.9,90,100,1.79,NL,1702017276
116,mount pearl,47.5166,-52.7813,-3.25,83,40,16.98,CA,1702017036
117,la ronge,55.1001,-105.2842,-8.86,92,0,1.54,CA,1702017277
118,terrace,54.5163,-128.6035,0.12,93,100,1.54,CA,1702017278
119,lompoc,34.6391,-120.4579,12.66,86,0,7.2,US,1702017278
120,shalya,57.2471,58.7298,-25.01,80,2,1.13,RU,1702017279
121,punta del este,-34.9667,-54.95,16.04,82,0,3.13,UY,1702017279
122,qaqortoq,60.7167,-46.0333,3.69,52,100,9.26,GL,1702017280
123,gafargaon,24.4333,90.5667,24.59,69,80,1.99,BD,1702017280
124,portland,45.5234,-122.6762,6.54,93,65,3.13,US,1702017089
125,hammerfest,70.6634,23.6821,-5.75,68,0,6.17,NO,1702017282
126,la passe,45.5549,-0.8967,11.1,86,42,6.19,FR,1702017282
127,remire-montjoly,4.9167,-52.2667,25.02,100,100,0.51,GF,1702017283
128,capitan bado,-23.2667,-55.5333,20.88,98,100,2.37,PY,1702017283
129,olonkinbyen,70.9221,-8.7187,-3.63,74,90,3.51,SJ,1702017284
130,vila velha,-20.3297,-40.2925,24.97,84,0,4.12,BR,1702017284
131,sydney mines,46.2367,-60.2177,-0.56,83,40,8.23,CA,1702017285
132,hegang,47.4,130.3667,-9.45,95,100,1.93,CN,1702017286
133,kamyzyak,46.11,48.0736,-3.01,86,0,7.0,RU,1702017286
134,arteche,12.2645,125.4048,28.13,79,83,3.45,PH,1702017287
135,kananga,-5.8958,22.4178,23.14,87,92,0.52,CD,1702017287
136,vila do maio,15.1333,-23.2167,23.44,67,0,6.47,CV,1702017287
137,puerto baquerizo moreno,-0.9,-89.6,23.58,88,46,4.46,EC,1702017011
138,vorgashor,67.5833,63.95,-24.55,99,100,1.63,RU,1702017288
139,roccella ionica,38.322,16.4009,11.95,62,11,1.7,IT,1702017289
140,puerto san jose,13.9256,-90.8244,24.3,80,5,2.16,GT,1702017241
141,mbandaka,0.0487,18.2603,23.9,87,81,1.56,CD,1702017290
142,ancud,-41.8697,-73.8203,8.85,90,1,1.48,CL,1702017290
143,bloomfield,40.8068,-74.1854,4.92,78,100,3.6,US,1702017233
144,kiunga,-6.1219,141.2906,29.47,77,50,0.92,PG,1702017291
145,kimbe,-5.5502,150.1429,28.04,83,52,1.51,PG,1702017292
146,sumbe,-11.2061,13.8437,26.11,84,100,0.71,AO,1702017292
147,kendari,-3.945,122.4989,29.66,78,15,1.26,ID,1702017292
148,isla aguada,18.7833,-91.4667,23.65,76,100,3.7,MX,1702017293
149,fale old settlement,-9.3852,-171.2468,28.87,74,100,5.05,TK,1702017293
150,zalesovo,53.9939,84.7431,-28.02,92,99,1.86,RU,1702017294
151,kodiak,57.79,-152.4072,-3.27,36,0,6.69,US,1702017294
152,grande prairie,55.1667,-118.8027,-10.9,85,75,1.54,CA,1702017295
153,tiksi,71.6872,128.8694,-31.33,100,100,0.82,RU,1702017295
154,port macquarie,-31.4333,152.9167,27.72,71,0,6.03,AU,1702017202
155,kazanskoye,55.6448,69.235,-29.5,90,6,1.99,RU,1702017296
156,nuuk,64.1835,-51.7216,3.34,48,91,7.2,GL,1702017297
157,macheng,31.1783,115.0319,22.55,23,60,4.75,CN,1702017297
158,dongyang,29.2678,120.2253,21.47,33,28,2.46,CN,1702017297
159,jamaame,0.0697,42.745,31.53,53,5,3.66,SO,1702017298
160,christchurch,-43.5333,172.6333,18.63,66,100,7.72,NZ,1702017009
161,san carlos de bariloche,-41.1456,-71.3082,10.86,66,0,3.6,AR,1702017242
162,banfora,10.6333,-4.7667,22.29,22,34,2.31,BF,1702017299
163,ust'-charyshskaya pristan',52.3934,83.6635,-20.45,78,96,3.32,RU,1702017300
164,kulhudhuffushi,6.6221,73.07,27.97,80,100,9.66,MV,1702017300
165,zeya,53.75,127.2667,-21.4,84,100,0.93,RU,1702017301
166,mount gambier,-37.8333,140.7667,16.51,78,100,4.83,AU,1702017301
167,al'met'yevsk,54.9044,52.3154,-28.84,96,17,1.47,RU,1702017302
168,chishmy,54.5765,55.3764,-29.0,96,45,0.36,RU,1702017303
169,merizo village,13.2658,144.6691,29.43,81,100,7.23,GU,1702017306
170,labrador city,52.9463,-66.9114,-10.05,79,75,5.14,CA,1702017308
171,kabul,34.5,69.4167,10.24,18,100,0.81,AF,1702017300
172,chernyshevskiy,63.0128,112.4714,-32.8,98,99,0.96,RU,1702017313
173,san matias,-16.3667,-58.4,24.86,78,100,0.79,BO,1702017315
174,sao miguel do araguaia,-13.275,-50.1628,26.9,47,100,1.4,BR,1702017316
175,vilyuchinsk,52.9306,158.4028,-3.85,83,100,3.28,RU,1702017036
176,sa'dah,16.9402,43.7639,15.55,29,6,3.3,YE,1702017317
177,axim,4.8699,-2.2405,26.31,83,100,0.99,GH,1702017319
178,mar del plata,-38.0023,-57.5575,12.83,84,20,3.13,AR,1702017103
179,kegen,43.0197,79.2203,0.09,58,100,1.05,KZ,1702017320
180,ellensburg,46.9965,-120.5479,4.21,85,0,5.14,US,1702017321
181,mpika,-11.8343,31.4529,25.99,50,8,3.54,ZM,1702017322
182,tual,-5.6667,132.75,29.46,68,14,2.55,ID,1702017323
183,rosario oeste,-14.8361,-56.4275,27.29,57,100,0.54,BR,1702017324
184,namibe,-15.1961,12.1522,24.24,72,100,2.3,AO,1702017325
185,port-gentil,-0.7193,8.7815,25.98,94,75,2.06,GA,1702017325
186,puerto ayacucho,5.6639,-67.6236,23.69,93,94,0.79,VE,1702017326
187,ajodhya,26.8,82.2,25.71,38,0,4.7,IN,1702017327
188,saipan,15.1355,145.701,29.39,70,20,6.17,MP,1702017327
189,sitka,57.0531,-135.33,2.94,87,100,4.12,US,1702017049
190,syktyvkar,61.6764,50.8099,-31.72,74,20,1.0,RU,1702017328
191,khandyga,62.6667,135.6,-26.97,99,100,1.7,RU,1702017329
192,petropavlovsk-kamchatsky,53.0452,158.6483,-4.67,77,75,3.58,RU,1702017046
193,santa cruz,-17.8,-63.1667,27.7,65,75,5.66,BO,1702017132
194,kingston,17.997,-76.7936,26.78,84,20,3.6,JM,1702017331
195,okha,53.5739,142.9478,-6.54,88,100,5.64,RU,1702017332
196,katsuura,35.1333,140.3,13.99,45,0,1.85,JP,1702017332
197,nouadhibou,20.931,-17.0347,20.12,53,0,6.71,MR,1702017333
198,ta`u,-14.2336,-169.5144,27.0,85,100,5.47,AS,1702017333
199,maraba,-5.3686,-49.1178,26.1,89,0,1.54,BR,1702017334
200,olinda,-8.0089,-34.8553,26.85,78,75,3.6,BR,1702017334
201,tadine,-21.55,167.8833,23.43,73,100,7.44,NC,1702017335
202,broken hill,-31.95,141.4333,39.99,12,76,13.14,AU,1702017335
203,fortuna,40.5982,-124.1573,7.59,97,100,0.89,US,1702017336
204,alvaraes,-3.2208,-64.8042,22.61,100,100,0.52,BR,1702017337
205,sebastopol,44.6,33.5333,11.67,63,100,1.79,UA,1702017337
206,hilo,19.7297,-155.09,22.57,91,75,3.09,US,1702017337
207,riachao do jacuipe,-11.8069,-39.3856,21.1,96,100,1.48,BR,1702017338
208,palikir - national government center,6.9248,158.1611,25.41,89,100,2.06,FM,1702017339
209,aars,56.804,9.5144,0.99,95,100,5.34,DK,1702017340
210,cide,41.8921,33.0044,12.78,81,100,1.21,TR,1702017340
211,keflavik,64.0049,-22.5624,0.24,64,0,4.12,IS,1702017341
212,avarua,-21.2078,-159.775,25.03,73,100,4.63,CK,1702017341
213,zhongshan,21.3226,110.5829,23.22,67,80,4.49,CN,1702017342
214,quellon,-43.1167,-73.6167,7.78,93,9,2.36,CL,1702017342
215,stanley,54.868,-1.6985,5.29,96,100,3.09,GB,1702017343
216,ribeira brava,32.65,-17.0667,19.28,75,19,1.12,PT,1702017343
217,cananeia,-25.0147,-47.9267,23.9,94,100,0.6,BR,1702017344
218,chegdomyn,51.1167,133.0167,-14.79,88,100,1.49,RU,1702017142
219,basco,20.4487,121.9702,25.56,82,98,9.82,PH,1702017345
220,eraan,9.0629,117.7016,28.46,76,92,1.42,PH,1702017346
221,nishinoomote,30.7333,131.0,17.31,63,20,2.06,JP,1702017347
222,gemena,3.25,19.7667,22.72,90,100,0.42,CD,1702017347
223,new norfolk,-42.7826,147.0587,19.72,74,100,2.39,AU,1702017348
224,sarayonu,38.262,32.4046,7.79,73,100,5.22,TR,1702017349
225,jamestown,42.097,-79.2353,0.86,100,0,2.06,US,1702017349
226,newman,37.3138,-121.0208,9.6,84,1,2.32,US,1702017350
227,marks,51.7111,46.7486,-16.58,90,13,4.19,RU,1702017087
228,sao jose da coroa grande,-8.8978,-35.1478,24.76,83,27,3.68,BR,1702017351
229,san antonio de pale,-1.4014,5.6325,26.68,78,100,1.48,GQ,1702017352
230,taoudenni,22.6783,-3.9836,18.22,32,100,3.83,ML,1702017352
231,port saint john's,-31.6229,29.5448,25.8,55,0,1.58,ZA,1702017353
232,nadi,-17.8,177.4167,28.0,69,75,5.14,FJ,1702017353
233,linz,48.3064,14.2861,-3.76,88,100,1.54,AT,1702017354
234,manicore,-5.8092,-61.3003,22.15,99,78,0.67,BR,1702017354
235,port alfred,-33.5906,26.891,22.32,79,4,3.58,ZA,1702017355
236,yuzhno-kurilsk,44.0306,145.8556,3.54,89,98,14.14,RU,1702017355
237,malango,-2.9627,119.9001,25.31,85,80,0.46,ID,1702017356
238,sao tome,0.3365,6.7273,23.02,94,75,2.57,ST,1702017356
239,kununurra,-15.7667,128.7333,38.99,32,40,3.6,AU,1702017225
240,tres arroyos,-38.3739,-60.2798,9.14,74,5,3.03,AR,1702017357
241,kolokani,13.5728,-8.0339,19.97,20,5,4.32,ML,1702017357
242,shar,49.5886,81.0453,-16.21,81,100,3.86,KZ,1702017358
243,smithers,54.7804,-127.1743,-5.82,93,75,1.03,CA,1702017358
244,gopalganj,26.4667,84.4333,25.69,47,0,4.09,IN,1702017360
245,ulsteinvik,62.3432,5.8487,0.07,67,15,2.68,NO,1702017360
246,muang phonsavan,19.45,103.2167,26.68,47,60,1.64,LA,1702017361
247,udachny,66.4167,112.4,-29.2,74,100,1.84,RU,1702017174
248,vinchia,22.2,71.3667,26.51,41,0,3.89,IN,1702017361
249,zastron,-30.3023,27.084,19.06,56,17,1.66,ZA,1702017362
250,castillos,-34.1667,-53.8333,12.66,82,1,2.84,UY,1702017363
251,funadhoo,6.15,73.2667,27.71,82,100,8.78,MV,1702017364
252,cannonvale,-20.2833,148.7,27.66,64,5,8.63,AU,1702017364
253,langsa,4.4683,97.9683,30.16,65,100,1.65,ID,1702017365
254,kalmunai,7.4167,81.8167,29.56,72,84,3.74,LK,1702017366
255,nokha,27.6,73.4167,22.72,19,0,0.85,IN,1702017366
256,arkhangel'sk,64.5401,40.5433,-19.94,84,100,3.0,RU,1702017367
257,howrah,22.5892,88.3103,22.0,83,75,4.12,IN,1702017368
258,uribia,11.7139,-72.266,26.3,78,19,6.79,CO,1702017247
259,baiti,13.745,-14.7482,22.52,18,94,2.04,SN,1702017369
260,valparaiso,-33.0393,-71.6273,13.8,88,75,1.54,CL,1702017250
261,orchard homes,46.8633,-114.0484,1.58,77,100,0.89,US,1702017370
262,cruz del eje,-30.7264,-64.8039,18.68,55,0,3.44,AR,1702017371
263,clarence town,-32.5833,151.7833,32.95,38,7,5.66,AU,1702017372
264,hermanus,-34.4187,19.2345,20.21,75,6,3.46,ZA,1702017373
265,skowhegan,44.7651,-69.7192,-11.69,93,29,1.22,US,1702017374
266,sao gabriel da cachoeira,-0.1303,-67.0892,22.83,99,100,0.19,BR,1702017375
267,cabo san lucas,22.8909,-109.9124,23.62,61,0,0.45,MX,1702017339
268,nan,18.8333,100.6667,28.01,61,20,1.54,TH,1702017376
269,noshiro,40.2039,140.0242,9.46,77,88,2.11,JP,1702017377
270,victoria point,-27.5833,153.3,29.63,69,0,4.47,AU,1702017378
271,kenora,49.8167,-94.4337,3.54,70,75,5.14,CA,1702017378
272,pisco,-13.7,-76.2167,19.03,88,0,4.63,PE,1702017379
273,yiyang,28.5892,112.3283,21.14,31,100,4.08,CN,1702017379
274,touros,-5.1989,-35.4608,26.22,76,94,6.51,BR,1702017380
275,mastic beach,40.7668,-72.8521,4.43,86,20,0.0,US,1702017381
276,praia da vitoria,38.7333,-27.0667,20.14,88,40,13.89,PT,1702017381
277,gaigeturi,33.4644,126.3183,20.03,42,0,2.57,KR,1702017382
278,vuktyl,63.8567,57.3094,-24.29,98,100,1.1,RU,1702017382
279,ierapetra,35.01,25.7353,15.08,68,22,1.79,GR,1702017383
280,badiyah,22.45,58.8,24.66,28,0,1.1,OM,1702017383
281,prince george,53.9166,-122.753,-4.31,94,100,0.0,CA,1702017384
282,codrington,-38.2667,141.9667,16.78,89,100,3.89,AU,1702017385
283,aioun,16.6614,-9.6149,20.16,18,96,4.94,MR,1702017385
284,vicam,27.6333,-110.2833,20.58,33,0,2.13,MX,1702017386
285,valle de la pascua,9.2155,-66.0073,23.91,86,100,2.91,VE,1702017386
286,inirida,3.8653,-67.9239,22.87,99,100,1.3,CO,1702017387
287,dadukou,26.5479,101.7054,17.87,68,100,1.19,CN,1702017387
288,nar'yan-mar,67.6713,53.087,-14.74,97,100,3.0,RU,1702017388
289,granby,45.4001,-72.7324,-5.71,86,45,0.51,CA,1702017389
290,iskateley,67.6803,53.1512,-15.02,97,100,2.85,RU,1702017389
291,al bawiti,28.3492,28.8659,17.2,39,100,1.91,EG,1702017390
292,adam,22.3756,57.5233,24.55,38,0,0.86,OM,1702017390
293,sinabang,2.4803,96.3801,29.16,73,90,1.31,ID,1702017391
294,nhamunda,-2.1861,-56.7131,23.6,97,89,0.94,BR,1702017391
295,soja,34.6667,133.75,15.38,42,0,2.57,JP,1702017392
296,linxia chengguanzhen,35.6003,103.2064,9.74,20,96,0.95,CN,1702017393
297,ulanhot,46.0833,122.0833,-6.73,48,0,7.56,CN,1702017393
298,talent,42.2457,-122.7887,3.26,94,0,1.54,US,1702017394
299,kapa'a,22.0752,-159.319,23.18,83,75,2.57,US,1702017394
300,tomatlan,19.9333,-105.25,20.87,87,4,1.78,MX,1702017395
301,luderitz,-26.6481,15.1594,22.16,46,0,7.52,NA,1702017395
302,aljezur,37.3191,-8.8033,14.41,87,100,3.14,PT,1702017396
303,khorixas,-20.3667,14.9667,25.26,16,100,2.54,NA,1702017397
304,letlhakeng,-24.0944,25.0298,29.24,31,5,5.91,BW,1702017397
305,zemio,5.0314,25.1361,26.92,55,46,1.04,CF,1702017398
306,zhengzhou,34.7578,113.6486,22.27,17,100,2.16,CN,1702017121
307,polyarnyy,69.1989,33.4478,-13.24,94,92,7.85,RU,1702017399
308,whangarei,-35.7317,174.3239,16.38,66,5,2.7,NZ,1702017386
309,fort mcmurray,56.7268,-111.381,-5.27,79,0,5.66,CA,1702017328
310,sambava,-14.2667,50.1667,28.34,70,93,5.5,MG,1702017400
311,yelizovo,53.1873,158.3805,-3.92,73,75,2.0,RU,1702017401
312,lebu,-37.6167,-73.65,11.77,87,3,6.77,CL,1702017401
313,colindres,43.3864,-3.4353,11.38,83,0,7.04,ES,1702017402
314,kapuskasing,49.4169,-82.4331,-1.95,100,100,4.12,CA,1702017402
315,kavarna,43.4333,28.3333,3.57,98,100,10.29,BG,1702017402
316,puerto aysen,-45.4,-72.7,9.11,98,15,0.26,CL,1702017403
317,saynshand,44.8824,110.1163,-8.91,72,7,3.41,MN,1702017403
318,zhangye,38.9342,100.4517,7.69,21,0,0.85,CN,1702017404
319,lithgow,-33.4833,150.15,30.67,28,96,3.25,AU,1702017404
320,banda aceh,5.5577,95.3222,29.87,69,89,4.95,ID,1702017405
321,vadso,70.0744,29.7487,-7.91,79,40,10.29,NO,1702017405
322,severo-yeniseyskiy,60.3725,93.0408,-28.57,95,98,0.89,RU,1702017406
323,kamaishi,39.2667,141.8833,9.29,70,40,3.61,JP,1702017406
324,flying fish cove,-10.4217,105.6791,28.82,69,75,4.63,CX,1702017407
325,shelby,35.2001,-89.8668,10.62,57,0,3.6,US,1702017407
326,xianyang,34.3378,108.7026,16.58,27,0,2.0,CN,1702017407
327,oranjemund,-28.55,16.4333,18.87,74,69,4.13,NA,1702017408
328,ciudad guadalupe victoria,24.4497,-104.1225,11.23,59,2,3.45,MX,1702017409
329,tannum sands,-23.9504,151.3693,28.75,61,0,9.77,AU,1702017409
330,karratha,-20.7377,116.8463,38.87,23,6,8.67,AU,1702017410
331,weno,7.4515,151.8468,28.97,79,100,4.12,FM,1702017410
332,hamilton,39.1834,-84.5333,9.62,63,0,4.63,US,1702017402
333,cafayate,-26.073,-65.9761,17.11,77,98,2.39,AR,1702017411
334,hithadhoo,-0.6,73.0833,27.77,76,42,2.95,MV,1702017412
335,kenai,60.5544,-151.2583,-5.95,95,100,4.63,US,1702017412
336,tangalle,6.024,80.7911,30.09,78,99,1.53,LK,1702017413
337,bom jardim,-7.7958,-35.5872,21.57,93,93,1.56,BR,1702017413
338,ende,-8.8432,121.6623,30.01,71,58,1.55,ID,1702017414
339,akrehamn,59.2667,5.1833,2.45,59,20,5.66,NO,1702017414
340,colares,38.7992,-9.4469,15.18,94,99,11.18,PT,1702017414
341,rundu,-17.9333,19.7667,29.32,37,38,4.3,NA,1702017415
342,mawlamyinegyunn,16.3833,95.2667,31.6,57,69,2.33,MM,1702017415
343,mont-laurier,46.5501,-75.4993,-8.21,99,89,0.86,CA,1702017416
344,salinopolis,-0.6136,-47.3561,26.61,82,100,4.43,BR,1702017416
345,klyuchi,52.2667,79.1667,-22.1,69,100,3.93,RU,1702017417
346,hadibu,12.65,54.0333,26.08,60,27,6.33,YE,1702017418
347,san andres,12.5847,-81.7006,28.01,78,20,5.14,CO,1702017418
348,puerto real,36.5282,-6.1901,18.07,88,75,7.2,ES,1702017419
349,anadyr,64.75,177.4833,-20.72,84,0,10.0,RU,1702017419
350,yaren,-0.5472,166.916,26.8,83,100,3.39,NR,1702017420
351,changping,40.2186,116.2197,12.8,24,0,2.17,CN,1702017420
352,inari,68.906,27.0288,-9.89,87,100,5.04,FI,1702017277
353,island harbour,50.724,-1.2758,9.43,95,19,1.34,GB,1702017421
354,trairi,-3.2778,-39.2689,25.77,80,99,4.03,BR,1702017355
355,sittwe,20.15,92.9,27.38,75,31,3.47,MM,1702017422
356,mount pleasant,32.7941,-79.8626,11.1,88,0,1.34,US,1702017235
357,kuusamo,65.9667,29.1833,-12.98,85,100,3.09,FI,1702017424
358,vallenar,-28.5708,-70.7581,18.37,59,2,1.45,CL,1702017425
359,kirtipur,27.6667,85.2833,18.96,52,40,2.06,NP,1702017425
360,richmond,37.5538,-77.4603,4.81,76,0,2.06,US,1702017387
361,salida,37.7058,-121.0849,10.08,88,0,1.54,US,1702017359
362,cankaya,39.9179,32.8627,8.84,93,75,1.54,TR,1702017427
363,ketchikan,55.3422,-131.6461,3.26,93,100,2.06,US,1702017335
364,orbetello,42.4408,11.2196,3.01,72,100,4.36,IT,1702017428
365,rio grande,-32.035,-52.0986,16.64,70,79,6.03,BR,1702017429
366,ust-nera,64.5667,143.2,-25.15,99,100,2.52,RU,1702017429
367,wafangdian,39.6183,122.0081,11.49,62,92,1.87,CN,1702017430
368,safford,32.834,-109.7076,15.06,49,0,3.09,US,1702017430
369,akureyri,65.6835,-18.0878,-10.04,85,44,1.54,IS,1702017431
370,harstad,68.799,16.5293,-2.14,78,77,6.71,NO,1702017431
371,cambria,35.5641,-121.0808,11.45,87,26,1.34,US,1702017432
372,constantia,44.1833,28.65,0.39,84,95,7.32,RO,1702017432
373,mantua,45.1667,10.7833,3.58,91,100,0.89,IT,1702017433
374,acu,-5.5767,-36.9086,24.79,80,89,3.41,BR,1702017275
375,lynden,48.9465,-122.4521,5.91,97,75,1.03,US,1702017434
376,sao joao da barra,-21.6403,-41.0511,23.37,89,10,5.77,BR,1702017434
377,whitefish,48.4111,-114.3376,1.22,89,40,0.0,US,1702017435
378,champerico,14.3,-91.9167,25.18,75,0,2.37,GT,1702017435
379,northam,51.0333,-4.2167,10.34,89,96,8.44,GB,1702017436
380,nelson bay,-32.7167,152.15,33.03,81,9,12.07,AU,1702017437
381,yingshang chengguanzhen,32.6295,116.2701,23.08,19,96,4.27,CN,1702017437
382,bender,46.8306,29.4711,-0.57,94,97,3.58,MD,1702017438
383,danville,36.586,-79.395,6.04,62,0,2.57,US,1702017438
384,alta,69.9689,23.2717,-6.41,74,0,4.12,NO,1702017439
385,spirovo,57.419,34.9766,-17.05,96,100,2.9,RU,1702017439
386,east london,-33.0153,27.9116,21.52,68,0,5.66,ZA,1702017440
387,orkney,-26.9802,26.6727,28.17,28,0,6.37,ZA,1702017440
388,sanandaj,35.3144,46.9923,2.01,81,40,0.0,IR,1702017162
389,geraldton,-28.7667,114.6,26.23,41,0,12.35,AU,1702017442
390,vinales,22.6164,-83.7078,18.38,80,100,3.04,CU,1702017443
391,inverell,-29.7833,151.1167,35.64,16,9,2.68,AU,1702017443
392,nili,33.7218,66.1302,8.54,20,2,0.5,AF,1702017444
393,baharly,38.4362,57.4316,10.58,43,22,1.49,TM,1702017445
394,salalah,17.0151,54.0924,28.05,32,20,6.17,OM,1702017446
395,skelleftea,64.7507,20.9528,-4.44,100,100,2.57,SE,1702017446
396,ola,59.5833,151.2833,-6.03,78,100,7.03,RU,1702017447
397,shubarshi,48.5872,57.1869,-11.6,65,14,5.63,KZ,1702017447
398,doka,13.5167,35.7667,29.31,26,9,2.68,SD,1702017448
399,georgievka,49.3314,81.5761,-15.69,81,100,3.83,KZ,1702017448
400,martakert,40.2104,46.821,7.31,91,100,3.21,AZ,1702017449
401,charlestown,-32.95,151.6667,33.06,71,19,1.79,AU,1702017449
402,chake chake,-5.2459,39.7666,29.68,65,87,2.21,TZ,1702017450
403,tazacorte,28.629,-17.9293,18.54,90,0,4.63,ES,1702017450
404,nyurba,63.2842,118.3319,-44.56,100,100,1.77,RU,1702017451
405,dunedin,-45.8742,170.5036,17.67,57,100,1.34,NZ,1702017451
406,vilyuysk,63.7553,121.6247,-40.28,97,100,2.41,RU,1702017201
407,st. john's,47.5649,-52.7093,-2.79,83,40,16.98,CA,1702017420
408,slave lake,55.2834,-114.769,-7.01,79,0,2.06,CA,1702017382
409,beytussebap,37.5694,43.1681,6.12,90,99,1.19,TR,1702017454
410,dedovichi,57.5517,29.9502,-11.06,93,100,3.87,RU,1702017454
411,seydi,39.4816,62.9137,6.33,26,75,2.57,TM,1702017455
412,turaif,31.6725,38.6637,13.14,71,0,6.17,SA,1702017455
413,arno,60.1167,18.6333,-0.68,97,100,5.54,SE,1702017456
414,coahuayana de hidalgo,18.7,-103.6583,22.64,87,6,2.11,MX,1702017456
415,castiglione del lago,43.1271,12.0453,4.55,96,100,1.32,IT,1702017457
416,westport,41.1415,-73.3579,2.9,81,0,0.45,US,1702017457
417,belabo,4.9333,13.3,23.42,86,29,0.77,CM,1702017458
418,haiku-pauwela,20.9219,-156.3051,23.91,78,100,0.45,US,1702017458
419,lockwood,45.8191,-108.4149,4.55,50,0,7.72,US,1702017459
420,aswan,24.0934,32.907,17.61,45,0,3.09,EG,1702017422
421,lively,46.4334,-81.1498,-0.55,97,100,1.84,CA,1702017459
422,gracemere,-23.4333,150.45,28.95,48,0,5.66,AU,1702017460
423,suances,43.4334,-4.0434,12.21,84,75,3.6,ES,1702017460
424,mugia,43.1041,-9.2179,12.73,70,100,7.37,ES,1702017461
425,pangody,65.85,74.4859,-27.72,97,7,4.91,RU,1702017461
426,gamba,-2.65,10.0,26.84,78,99,1.21,GA,1702017462
427,kokopo,-4.352,152.2633,27.09,84,93,5.47,PG,1702017462
428,belyy yar,53.6039,91.3903,-18.06,71,86,0.0,RU,1702017463
429,teguise,29.0605,-13.564,16.12,77,40,5.14,ES,1702017463
430,alo,7.4178,6.7371,26.18,72,100,0.93,NG,1702017464
431,limbang,4.75,115.0,30.06,84,100,1.66,MY,1702017174
432,rafiganj,24.8167,84.65,22.08,57,72,3.46,IN,1702017465
433,miller place,40.9598,-72.9962,3.64,86,20,0.0,US,1702017465
434,naryn,41.4287,75.9911,0.98,40,100,0.63,KG,1702017466
435,general acha,-37.377,-64.6043,16.78,57,0,3.59,AR,1702017466
436,marsh harbour,26.5412,-77.0636,21.58,56,89,4.81,BS,1702017467
437,bang saphan,11.2126,99.5117,29.61,65,27,3.29,TH,1702017467
438,mujiayingzi,42.1167,118.7833,6.14,43,13,4.82,CN,1702017468
439,talcahuano,-36.7167,-73.1167,11.82,87,40,5.66,CL,1702017468
440,kostomuksha,64.571,30.5767,-19.42,100,100,1.34,RU,1702017469
441,eravur town,7.7782,81.6038,29.71,72,61,4.03,LK,1702017469
442,baxter,46.3433,-94.2867,5.16,82,0,2.57,US,1702017276
443,fergus falls,46.283,-96.0776,4.04,85,0,6.69,US,1702017470
444,kavieng,-2.5744,150.7967,27.45,81,100,3.38,PG,1702017470
445,kidal,18.4411,1.4078,20.87,15,36,2.41,ML,1702017471
446,gargalianoi,37.0667,21.6333,7.97,64,6,7.58,GR,1702017471
447,pangkalanbuun,-2.6833,111.6167,31.3,63,78,2.55,ID,1702017472
448,cabinda,-5.55,12.2,27.08,89,75,2.06,AO,1702017472
449,ramshir,30.8946,49.4092,18.92,20,0,2.0,IR,1702017473
450,turpan,42.9333,89.1667,6.59,35,100,0.83,CN,1702017473
451,bredy,52.4153,60.3411,-22.94,82,6,2.75,RU,1702017474
452,flores,16.9226,-89.8994,19.69,98,37,0.79,GT,1702017233
453,vorkuta,67.5,64.0,-24.44,99,100,1.72,RU,1702017474
454,krasnogorskiy,54.6025,61.231,-26.65,87,5,1.19,RU,1702017475
455,avanigadda,16.0215,80.9181,28.86,63,9,2.56,IN,1702017475
456,inarajan village,13.2736,144.7484,29.66,81,100,7.17,GU,1702017476
457,pingliang,35.5392,106.6861,12.83,24,65,2.24,CN,1702017476
458,sidrolandia,-20.9319,-54.9614,22.14,83,100,1.85,BR,1702017477
459,peniche,39.3558,-9.3811,15.62,90,100,6.13,PT,1702017477
460,tamanrasset,22.785,5.5228,12.95,19,0,4.12,DZ,1702017478
461,sogndal,61.2283,7.1003,-3.79,73,20,2.57,NO,1702017478
462,yulinshi,38.2906,109.7494,7.93,37,0,3.27,CN,1702017479
463,takoradi,4.8845,-1.7554,26.63,79,100,1.26,GH,1702017203
464,egilsstadir,65.2653,-14.3948,-2.05,64,75,3.6,IS,1702017479
465,minas de marcona,-15.2119,-75.1103,14.43,85,100,4.47,PE,1702017480
466,paragominas,-2.9667,-47.4833,22.14,92,56,1.3,BR,1702017480
467,alesund,62.4723,6.1549,0.08,56,0,7.72,NO,1702017481
468,saudarkrokur,65.7461,-19.6394,-7.68,77,6,3.41,IS,1702017481
469,yanchep,-31.55,115.6833,27.79,51,0,8.89,AU,1702017482
470,mili,6.0815,171.735,27.81,82,100,9.68,MH,1702017483
471,razam,18.4667,83.6667,28.91,59,31,1.03,IN,1702017483
472,khovd,48.0056,91.6419,-9.43,43,0,1.82,MN,1702017484
473,moeiwadi,16.3894,104.1572,31.01,41,33,0.98,TH,1702017484
474,kavalerovo,44.2661,135.0572,-1.36,50,100,0.89,RU,1702017485
475,muroto-misakicho,33.2833,134.15,14.35,59,0,3.04,JP,1702017485
476,qamdo,31.1667,97.2333,-0.85,42,100,1.36,CN,1702017486
477,kristiansund,63.1115,7.732,-2.64,59,0,4.63,NO,1702017486
478,susanville,40.4163,-120.653,0.91,84,75,4.12,US,1702017427
479,niafunke,15.9322,-3.9906,21.44,18,64,4.38,ML,1702017487
480,sidney,-33.8679,151.2073,32.64,72,40,8.23,AU,1702017280
481,al qabil,22.571,58.6947,24.76,25,0,0.83,OM,1702017488
482,gorontalo,0.5412,123.0595,28.36,87,100,1.07,ID,1702017489
483,tingo maria,-9.2895,-76.0088,21.09,98,97,0.46,PE,1702017489
484,jiwani,25.05,61.7417,24.68,46,0,2.26,PK,1702017490
485,flagstaff,35.1981,-111.6513,3.81,63,0,1.54,US,1702017214
486,mejit,10.2753,170.8646,27.69,77,73,10.25,MH,1702017491
487,tongliao,43.6125,122.2653,-2.15,59,100,6.51,CN,1702017491
488,carauari,-4.8828,-66.8958,22.14,99,71,0.82,BR,1702017492
489,nogliki,51.8333,143.1667,-6.48,94,100,6.71,RU,1702017272
490,galle,6.0367,80.217,28.56,74,69,2.18,LK,1702017493
491,colonia,50.9333,6.95,3.66,88,100,3.6,DE,1702017382
492,protaras,35.0125,34.0583,19.44,84,100,3.07,CY,1702017494
493,inhambane,-23.865,35.3833,27.63,59,11,4.52,MZ,1702017495
494,labytnangi,66.6572,66.4183,-24.87,90,31,3.12,RU,1702017495
495,atherton,53.5237,-2.4935,7.46,96,91,3.13,GB,1702017342
496,coronel suarez,-37.4547,-61.9334,11.6,81,0,3.35,AR,1702017496
497,hasaki,35.7333,140.8333,17.22,38,0,2.36,JP,1702017497
498,isiro,2.7739,27.616,22.34,89,60,0.4,CD,1702017497
499,el granada,37.5027,-122.4694,11.12,85,0,4.12,US,1702017498
500,chonchi,-42.6128,-73.8092,7.56,98,15,1.37,CL,1702017498
501,mungwi,-10.1732,31.3694,23.28,72,95,2.02,ZM,1702017499
502,samana,19.2056,-69.3369,23.93,88,19,3.56,DO,1702017499
503,sao jose do egito,-7.4789,-37.2744,20.83,86,49,3.66,BR,1702017500
504,tokar,18.4254,37.729,28.99,51,7,5.63,SD,1702017500
505,natal,-5.795,-35.2094,26.12,83,40,4.12,BR,1702017224
506,lipovtsy,44.2014,131.7244,-0.58,84,100,6.5,RU,1702017501
507,aleksandrovskoye,44.7142,43.0008,2.16,97,100,8.62,RU,1702017502
508,ghat,24.9647,10.1728,13.83,39,11,1.53,LY,1702017502
509,emerald,-23.5333,148.1667,32.97,34,0,10.38,AU,1702017503
510,the pas,53.8251,-101.2541,-2.99,93,100,2.57,CA,1702017423
511,kolpny,52.2282,37.0368,-9.18,92,100,5.68,RU,1702017504
512,newport,51.5877,-2.9984,9.51,90,100,7.53,GB,1702017504
513,rocky mountain house,52.3668,-114.9188,-4.94,93,100,0.0,CA,1702017505
514,zungeru,9.8128,6.1558,24.04,21,38,2.63,NG,1702017505
515,alice springs,-23.7,133.8833,39.75,11,0,3.09,AU,1702017415
516,margate,51.3813,1.3862,8.16,95,100,2.24,GB,1702017507
517,wajir,1.7471,40.0573,24.98,83,100,3.09,KE,1702017508
518,dul'durga,50.6761,113.5931,-20.05,69,7,7.99,RU,1702017508
519,paros,37.0833,25.15,14.24,71,75,4.12,GR,1702017509
520,shilin,24.8188,103.3324,16.72,76,100,4.24,CN,1702017509
521,dubbo,-32.25,148.6167,37.07,25,27,5.66,AU,1702017437
522,orchomenos,38.4929,22.9796,8.84,64,93,4.02,GR,1702017510
523,hinganghat,20.5667,78.8333,26.42,55,0,2.07,IN,1702017511
524,samarinda,-0.5,117.15,33.27,50,65,1.68,ID,1702017511
525,salamanca,40.8333,-6.0,5.88,96,100,5.63,ES,1702017512
526,aleksandrov gay,50.147,48.5704,-6.2,61,6,5.45,RU,1702017512
527,mana,5.6592,-53.7767,24.94,92,9,3.7,GF,1702017513
528,guerrero negro,27.9769,-114.0611,17.49,76,3,6.83,MX,1702017513
529,muisne,0.6,-80.0333,24.62,95,100,4.35,EC,1702017514
530,pitanga,-24.7572,-51.7614,18.1,99,100,0.72,BR,1702017514
531,borgentreich,51.5692,9.2411,1.09,92,100,3.24,DE,1702017514
532,sarankhola,22.3082,89.7897,25.71,66,42,2.77,BD,1702017515
533,ilheus,-14.7889,-39.0494,23.31,83,88,0.89,BR,1702017485
534,byron bay,-28.65,153.6167,28.17,71,0,4.43,AU,1702017516
535,poplar bluff,36.757,-90.3929,10.5,60,100,3.6,US,1702017516
536,veinticinco de mayo,-35.4323,-60.1727,14.43,100,0,2.85,AR,1702017517
537,san jose,37.3394,-121.895,9.92,86,0,3.13,US,1702017385
538,anloga,5.7947,0.8973,28.1,75,98,2.34,GH,1702017518
539,lerwick,60.1545,-1.1494,6.0,96,100,16.2,GB,1702017518
540,palmer,42.1584,-72.3287,0.05,79,100,0.0,US,1702017319
541,san carlos,9.6612,-68.5827,24.89,78,100,1.14,VE,1702017519
542,vilhena,-12.7406,-60.1458,20.51,94,51,1.31,BR,1702017421
543,tynda,55.1667,124.7167,-23.99,86,100,1.42,RU,1702017520
544,xilin hot,43.9667,116.0333,-10.4,78,17,2.45,CN,1702017520
545,walvis bay,-22.9575,14.5053,16.53,82,100,1.03,NA,1702017521
546,diego de almagro,-26.3667,-70.05,13.87,72,1,1.89,CL,1702017521
547,alma,48.5501,-71.6491,-9.93,96,78,0.25,CA,1702017522
548,acarau,-2.8856,-40.12,25.78,81,97,5.06,BR,1702017522
549,abepura,-2.6333,140.5833,29.45,70,20,3.09,ID,1702017523
550,lautoka,-17.6167,177.4667,27.92,69,75,5.14,FJ,1702017523
551,prince rupert,54.3161,-130.3201,3.83,91,100,2.06,CA,1702017404
552,mugumu,-1.85,34.7,23.17,58,3,1.87,TZ,1702017524
553,tidjikja,18.5564,-11.4271,19.55,18,34,6.1,MR,1702017525
554,soc trang,9.6033,105.98,29.76,68,96,3.3,VN,1702017525
555,amga,60.8953,131.9608,-31.14,97,100,2.51,RU,1702017525
556,selfoss,63.9331,-20.9971,-4.71,57,0,4.1,IS,1702017526
557,livingston,55.9029,-3.5226,6.99,93,75,2.06,GB,1702017526
558,el calafate,-50.3408,-72.2768,11.88,70,100,1.77,AR,1702017527
559,manismata,-2.4667,111.0333,29.48,79,48,1.97,ID,1702017527
560,san luis de la loma,17.2706,-100.8939,24.03,77,0,2.28,MX,1702017528
561,vredendal,-31.6683,18.5012,20.39,67,89,3.36,ZA,1702017528
562,blenheim,-41.516,173.9528,16.4,72,13,0.89,NZ,1702017529
563,kandahar,31.0,65.75,15.78,11,0,2.38,AF,1702017529
564,mandan,46.8267,-100.8896,5.99,83,100,14.4,US,1702017530
565,uturoa,-16.7333,-151.4333,26.8,79,100,2.26,PF,1702017530
566,dalgopol,43.05,27.35,0.21,84,100,5.46,BG,1702017531
567,hastings,50.8552,0.5729,9.32,91,100,5.38,GB,1702017531
568,vernon,50.2581,-119.2691,3.2,87,100,1.03,CA,1702017532
569,najran,17.4924,44.1277,17.36,33,7,3.14,SA,1702017532
570,tosontsengel,48.7567,98.2839,-17.36,81,99,0.79,MN,1702017532
571,onega,63.9061,38.1404,-21.81,99,56,2.5,RU,1702017533
572,pimentel,-6.8367,-79.9342,20.16,83,0,6.69,PE,1702017534
573,yokadouma,3.5167,15.05,22.49,90,100,0.26,CM,1702017534
574,south hedland,-20.4089,118.5983,39.96,35,10,5.66,AU,1702017535
575,praia,14.9215,-23.5087,23.3,83,20,6.17,CV,1702017535
576,altay,47.8667,88.1167,-11.43,78,21,0.15,CN,1702017536
577,al kharijah,25.4514,30.5464,18.79,40,0,0.7,EG,1702017536
578,ocean city,39.2776,-74.5746,2.78,85,6,2.43,US,1702017537
579,myeik,12.4333,98.6,30.31,64,51,2.7,MM,1702017537
580,twin falls,42.3505,-114.6445,0.52,86,75,6.17,US,1702017538
581,carutapera,-1.195,-46.02,25.59,84,87,3.08,BR,1702017538
582,auki,-8.7676,160.7034,27.59,82,63,3.47,SB,1702017538
583,stawell,-37.05,142.7667,31.76,32,100,4.7,AU,1702017539
584,khoyniki,51.8911,29.9552,-4.32,96,100,3.68,BY,1702017539
585,tulum,20.2167,-87.4667,21.75,79,100,1.76,MX,1702017540
586,gadzhiyevo,69.2551,33.3362,-13.89,95,93,7.22,RU,1702017540
587,pitimbu,-7.4706,-34.8086,26.33,78,50,4.27,BR,1702017541
588,gaspe,48.8334,-64.4819,-4.05,63,100,5.66,CA,1702017282
589,sandnessjoen,66.0217,12.6316,-3.94,74,0,1.54,NO,1702017542
590,siemiatycze,52.4272,22.8623,-10.33,96,80,3.95,PL,1702017542
591,nehoiu,45.4167,26.3,2.26,89,78,0.58,RO,1702017543
592,cururupu,-1.8283,-44.8683,24.39,89,99,1.66,BR,1702017544
593,ewo,-0.8725,14.8206,24.77,83,79,1.24,CG,1702017544
594,katabu,-4.9333,122.5167,31.24,63,77,3.63,ID,1702017545
595,luwuk,-0.9516,122.7875,29.87,78,82,0.25,ID,1702017545
596,belmonte,-15.8631,-38.8828,23.56,83,7,2.41,BR,1702017546
597,williams lake,52.1415,-122.1445,-3.24,94,100,0.0,CA,1702017546
598,moree,-29.4667,149.85,37.85,19,0,2.11,AU,1702017547
